{
  "positions": [
    {
      "id": "TW_0089",
      "name": "경포대해수욕장",
      "lng": 128.932,
      "lat": 37.80884
    },
    {
      "id": "TW_0079",
      "name": "상왕등도",
      "lng": 126.1943,
      "lat": 35.65246
    },
    {
      "id": "TW_0080",
      "name": "우이도",
      "lng": 125.8003,
      "lat": 34.54414
    },
    {
      "id": "TW_0081",
      "name": "생일도",
      "lng": 126.9603,
      "lat": 34.25872
    },
    {
      "id": "TW_0062",
      "name": "해운대해수욕장",
      "lng": 129.1697,
      "lat": 35.14889
    },
    {
      "id": "TW_0090",
      "name": "송정해수욕장",
      "lng": 129.2157,
      "lat": 35.162
    },
    {
      "id": "TW_0091",
      "name": "낙산해수욕장",
      "lng": 128.6505,
      "lat": 38.1225
    },
    {
      "id": "HB_0001",
      "name": "한수원_기장",
      "lng": 129.2353,
      "lat": 35.18244
    },
    {
      "id": "HB_0002",
      "name": "한수원_고리",
      "lng": 129.3147,
      "lat": 35.3185
    },
    {
      "id": "HB_0003",
      "name": "한수원_진하",
      "lng": 129.3681,
      "lat": 35.38472
    },
    {
      "id": "HB_0004",
      "name": "한수원_정자",
      "lng": 129.495,
      "lat": 35.63472
    },
    {
      "id": "HB_0005",
      "name": "한수원_신월성",
      "lng": 129.495,
      "lat": 35.71778
    },
    {
      "id": "HB_0006",
      "name": "한수원_양포",
      "lng": 129.5472,
      "lat": 35.86583
    },
    {
      "id": "TW_0072",
      "name": "군산항",
      "lng": 126.5089,
      "lat": 35.98361
    },
    {
      "id": "TW_0070",
      "name": "평택당진항",
      "lng": 126.5408,
      "lat": 37.1367
    },
    {
      "id": "TW_0069",
      "name": "대천해수욕장",
      "lng": 126.4553,
      "lat": 36.27972
    },
    {
      "id": "TW_0083",
      "name": "여수항",
      "lng": 127.8081,
      "lat": 34.79472
    },
    {
      "id": "TW_0084",
      "name": "통영항",
      "lng": 128.46,
      "lat": 34.77333
    },
    {
      "id": "TW_0078",
      "name": "완도항",
      "lng": 126.7633,
      "lat": 34.325
    },
    {
      "id": "TW_0087",
      "name": "부산항",
      "lng": 129.0853,
      "lat": 35.09175
    },
    {
      "id": "TW_0086",
      "name": "부산항신항",
      "lng": 128.7618,
      "lat": 35.04378
    },
    {
      "id": "TW_0077",
      "name": "경인항",
      "lng": 126.5922,
      "lat": 37.52333
    },
    {
      "id": "TW_0074",
      "name": "광양항",
      "lng": 127.7928,
      "lat": 34.85972
    },
    {
      "id": "TW_0082",
      "name": "태안항",
      "lng": 126.2702,
      "lat": 37.00672
    },
    {
      "id": "TW_0088",
      "name": "감천항",
      "lng": 129.0031,
      "lat": 35.05281
    },
    {
      "id": "TW_0075",
      "name": "중문해수욕장",
      "lng": 126.4097,
      "lat": 33.23444
    },
    {
      "id": "TW_0076",
      "name": "인천항",
      "lng": 126.5331,
      "lat": 37.38944
    },
    {
      "id": "TW_0085",
      "name": "마산항",
      "lng": 128.6318,
      "lat": 35.10319
    },
    {
      "id": "TW_0093",
      "name": "속초해수욕장",
      "lng": 128.631389,
      "lat": 38.198611
    },
    {
      "id": "KG_0021",
      "name": "제주남부",
      "lng": 126.9659,
      "lat": 32.09042
    },
    {
      "id": "KG_0024",
      "name": "대한해협",
      "lng": 129.1213,
      "lat": 34.919
    },
    {
      "id": "KG_0025",
      "name": "남해동부",
      "lng": 128.419,
      "lat": 34.22247
    },
    {
      "id": "KG_0028",
      "name": "제주해협",
      "lng": 126.4921,
      "lat": 33.91181
    },
    {
      "id": "KG_0101",
      "name": "울릉도북동",
      "lng": 131.5526,
      "lat": 38.00736
    },
    {
      "id": "KG_0102",
      "name": "울릉도북서",
      "lng": 130.6012,
      "lat": 37.74272
    },
    {
      "id": "RD_0003",
      "name": "울산신항 항만공사",
      "lng": 129.3819,
      "lat": 35.44333
    }
  ]
}